{"type":"FeatureCollection","features":[{"type":"Feature","geometry":{"type":"Point","coordinates":[98.500075,3.620359]},"properties":{"name":"Binjai","pop_max":564979}},{"type":"Feature","geometry":{"type":"Point","coordinates":[99.273361,1.388738]},"properties":{"name":"Padangsidempuan","pop_max":266882}},{"type":"Feature","geometry":{"type":"Point","coordinates":[98.966662,2.017072]},"properties":{"name":"Tarutung","pop_max":1305}},{"type":"Feature","geometry":{"type":"Point","coordinates":[99.130011,3.330377]},"properties":{"name":"Tebingtinggi","pop_max":268043}},{"type":"Feature","geometry":{"type":"Point","coordinates":[127.435983,0.696377]},"properties":{"name":"Tidore","pop_max":60611}},{"type":"Feature","geometry":{"type":"Point","coordinates":[100.36146,-0.303148]},"properties":{"name":"Bukittinggi","pop_max":506964}},{"type":"Feature","geometry":{"type":"Point","coordinates":[100.783347,-0.666278]},"properties":{"name":"Sawahlunto","pop_max":50354}},{"type":"Feature","geometry":{"type":"Point","coordinates":[100.416651,-0.449599]},"properties":{"name":"Padangpanjang","pop_max":44096}},{"type":"Feature","geometry":{"type":"Point","coordinates":[128.940491,-3.328132]},"properties":{"name":"Amahai","pop_max":47653}},{"type":"Feature","geometry":{"type":"Point","coordinates":[116.135019,-8.579542]},"properties":{"name":"Mataram","pop_max":499409}},{"type":"Feature","geometry":{"type":"Point","coordinates":[116.292322,-8.722324]},"properties":{"name":"Praya","pop_max":35183}},{"type":"Feature","geometry":{"type":"Point","coordinates":[122.616329,-5.469861]},"properties":{"name":"Baubau","pop_max":24412}},{"type":"Feature","geometry":{"type":"Point","coordinates":[122.790014,-0.939595]},"properties":{"name":"Luwuk","pop_max":47778}},{"type":"Feature","geometry":{"type":"Point","coordinates":[120.760008,-1.389593]},"properties":{"name":"Poso","pop_max":47110}},{"type":"Feature","geometry":{"type":"Point","coordinates":[136.048481,-1.161494]},"properties":{"name":"Biak","pop_max":103610}},{"type":"Feature","geometry":{"type":"Point","coordinates":[136.88998,-4.549607]},"properties":{"name":"Timika","pop_max":26021}},{"type":"Feature","geometry":{"type":"Point","coordinates":[97.966361,4.673577]},"properties":{"name":"Langsa","pop_max":117256}},{"type":"Feature","geometry":{"type":"Point","coordinates":[108.319011,-6.335648]},"properties":{"name":"Indramayu","pop_max":123263}},{"type":"Feature","geometry":{"type":"Point","coordinates":[106.899976,-6.909618]},"properties":{"name":"Sukabumi","pop_max":276414}},{"type":"Feature","geometry":{"type":"Point","coordinates":[109.015402,-7.71882]},"properties":{"name":"Cilacap","pop_max":1174964}},{"type":"Feature","geometry":{"type":"Point","coordinates":[111.034659,-6.741515]},"properties":{"name":"Pati","pop_max":122785}},{"type":"Feature","geometry":{"type":"Point","coordinates":[109.670039,-6.879594]},"properties":{"name":"Pakalongan","pop_max":272000}},{"type":"Feature","geometry":{"type":"Point","coordinates":[109.119996,-6.869569]},"properties":{"name":"Tegal","pop_max":237084}},{"type":"Feature","geometry":{"type":"Point","coordinates":[110.490093,-7.309542]},"properties":{"name":"Salatiga","pop_max":176000}},{"type":"Feature","geometry":{"type":"Point","coordinates":[110.179982,-7.469584]},"properties":{"name":"Magelang","pop_max":111461}},{"type":"Feature","geometry":{"type":"Point","coordinates":[106.149634,-6.109977]},"properties":{"name":"Serang","pop_max":164767}},{"type":"Feature","geometry":{"type":"Point","coordinates":[106.972323,-6.217257]},"properties":{"name":"Bekasi","pop_max":2378211}},{"type":"Feature","geometry":{"type":"Point","coordinates":[108.96547,0.911981]},"properties":{"name":"Singkawang","pop_max":248012}},{"type":"Feature","geometry":{"type":"Point","coordinates":[105.300022,-5.449604]},"properties":{"name":"Bandar Lampung","pop_max":881801}},{"type":"Feature","geometry":{"type":"Point","coordinates":[104.231457,-3.443163]},"properties":{"name":"Perabumulih","pop_max":103470}},{"type":"Feature","geometry":{"type":"Point","coordinates":[115.184121,-8.715113]},"properties":{"name":"Kuta","pop_max":30012}},{"type":"Feature","geometry":{"type":"Point","coordinates":[115.094398,-8.115199]},"properties":{"name":"Singaraja","pop_max":234468}},{"type":"Feature","geometry":{"type":"Point","coordinates":[113.849629,-7.00491]},"properties":{"name":"Sumenep","pop_max":84656}},{"type":"Feature","geometry":{"type":"Point","coordinates":[114.369597,-8.195018]},"properties":{"name":"Banyuwangi","pop_max":172424}},{"type":"Feature","geometry":{"type":"Point","coordinates":[112.049998,-6.899541]},"properties":{"name":"Tuban","pop_max":76242}},{"type":"Feature","geometry":{"type":"Point","coordinates":[113.150034,-7.749619]},"properties":{"name":"Probolinggo","pop_max":181656}},{"type":"Feature","geometry":{"type":"Point","coordinates":[112.900023,-7.629574]},"properties":{"name":"Pasuruan","pop_max":500000}},{"type":"Feature","geometry":{"type":"Point","coordinates":[112.429974,-7.469584]},"properties":{"name":"Mojokerto","pop_max":112557}},{"type":"Feature","geometry":{"type":"Point","coordinates":[111.514991,-7.634587]},"properties":{"name":"Madiun","pop_max":186099}},{"type":"Feature","geometry":{"type":"Point","coordinates":[112.000026,-7.789616]},"properties":{"name":"Kediri","pop_max":235143}},{"type":"Feature","geometry":{"type":"Point","coordinates":[112.149991,-8.069599]},"properties":{"name":"Blitar","pop_max":132416}},{"type":"Feature","geometry":{"type":"Point","coordinates":[120.253011,-9.658236]},"properties":{"name":"Waingapu","pop_max":48828}},{"type":"Feature","geometry":{"type":"Point","coordinates":[122.212323,-8.618868]},"properties":{"name":"Maumere","pop_max":104285}},{"type":"Feature","geometry":{"type":"Point","coordinates":[121.648946,-8.862316]},"properties":{"name":"Ende","pop_max":77205}},{"type":"Feature","geometry":{"type":"Point","coordinates":[119.853087,-3.096828]},"properties":{"name":"Makale","pop_max":9960}},{"type":"Feature","geometry":{"type":"Point","coordinates":[120.236319,-3.099928]},"properties":{"name":"Palopo","pop_max":2444}},{"type":"Feature","geometry":{"type":"Point","coordinates":[120.333368,-4.532813]},"properties":{"name":"Watampone","pop_max":81629}},{"type":"Feature","geometry":{"type":"Point","coordinates":[119.652221,-3.785726]},"properties":{"name":"Pinrang","pop_max":182731}},{"type":"Feature","geometry":{"type":"Point","coordinates":[118.966009,-3.533597]},"properties":{"name":"Majene","pop_max":272377}},{"type":"Feature","geometry":{"type":"Point","coordinates":[104.471442,0.916829]},"properties":{"name":"Tanjungpinang","pop_max":226666}},{"type":"Feature","geometry":{"type":"Point","coordinates":[108.2,4.216989]},"properties":{"name":"Telukbutun","pop_max":140}},{"type":"Feature","geometry":{"type":"Point","coordinates":[101.396436,-2.063144]},"properties":{"name":"Sungaipenuh","pop_max":95913}},{"type":"Feature","geometry":{"type":"Point","coordinates":[112.950046,-2.532935]},"properties":{"name":"Sampit","pop_max":92710}},{"type":"Feature","geometry":{"type":"Point","coordinates":[114.384476,-2.983715]},"properties":{"name":"Kualakapuas","pop_max":35632}},{"type":"Feature","geometry":{"type":"Point","coordinates":[113.909987,-2.209595]},"properties":{"name":"Palangkaraya","pop_max":148289}},{"type":"Feature","geometry":{"type":"Point","coordinates":[117.500001,0.133259]},"properties":{"name":"Bontang","pop_max":101691}},{"type":"Feature","geometry":{"type":"Point","coordinates":[115.219985,-8.650029]},"properties":{"name":"Denpasar","pop_max":732344}},{"type":"Feature","geometry":{"type":"Point","coordinates":[131.284999,-0.855414]},"properties":{"name":"Sorong","pop_max":125535}},{"type":"Feature","geometry":{"type":"Point","coordinates":[98.800005,1.749982]},"properties":{"name":"Sibolga","pop_max":217312}},{"type":"Feature","geometry":{"type":"Point","coordinates":[99.061488,2.961433]},"properties":{"name":"Pematangsiantar","pop_max":341200}},{"type":"Feature","geometry":{"type":"Point","coordinates":[101.423067,0.56691]},"properties":{"name":"Pekanbaru","pop_max":799000}},{"type":"Feature","geometry":{"type":"Point","coordinates":[124.849991,1.480025]},"properties":{"name":"Manado","pop_max":451893}},{"type":"Feature","geometry":{"type":"Point","coordinates":[110.375009,-7.779953]},"properties":{"name":"Yogyakarta","pop_max":636660}},{"type":"Feature","geometry":{"type":"Point","coordinates":[122.597312,-3.955328]},"properties":{"name":"Kendari","pop_max":165377}},{"type":"Feature","geometry":{"type":"Point","coordinates":[119.833037,-0.907039]},"properties":{"name":"Palu","pop_max":612445}},{"type":"Feature","geometry":{"type":"Point","coordinates":[135.513423,-3.351541]},"properties":{"name":"Nabire","pop_max":43898}},{"type":"Feature","geometry":{"type":"Point","coordinates":[140.401807,-8.493191]},"properties":{"name":"Merauke","pop_max":34412}},{"type":"Feature","geometry":{"type":"Point","coordinates":[97.14145,5.1914]},"properties":{"name":"Lhokseumawe","pop_max":140322}},{"type":"Feature","geometry":{"type":"Point","coordinates":[117.149996,-0.500035]},"properties":{"name":"Samarinda","pop_max":592228}},{"type":"Feature","geometry":{"type":"Point","coordinates":[108.566644,-6.733298]},"properties":{"name":"Cirebon","pop_max":254298}},{"type":"Feature","geometry":{"type":"Point","coordinates":[108.214676,-7.325407]},"properties":{"name":"Tasikmalaya","pop_max":271143}},{"type":"Feature","geometry":{"type":"Point","coordinates":[106.748065,-6.568055]},"properties":{"name":"Bogor","pop_max":918000}},{"type":"Feature","geometry":{"type":"Point","coordinates":[102.269974,-3.800041]},"properties":{"name":"Bengkulu","pop_max":426673}},{"type":"Feature","geometry":{"type":"Point","coordinates":[109.319983,-0.029987]},"properties":{"name":"Pontianak","pop_max":607311}},{"type":"Feature","geometry":{"type":"Point","coordinates":[104.899995,-4.833311]},"properties":{"name":"Kotabumi","pop_max":42366}},{"type":"Feature","geometry":{"type":"Point","coordinates":[103.533308,-3.800041]},"properties":{"name":"Lahat","pop_max":65906}},{"type":"Feature","geometry":{"type":"Point","coordinates":[106.150048,-2.080042]},"properties":{"name":"Pangkalpinang","pop_max":125933}},{"type":"Feature","geometry":{"type":"Point","coordinates":[113.687314,-8.172694]},"properties":{"name":"Jember","pop_max":298585}},{"type":"Feature","geometry":{"type":"Point","coordinates":[114.836494,-3.413501]},"properties":{"name":"Martapura","pop_max":198239}},{"type":"Feature","geometry":{"type":"Point","coordinates":[120.469845,-8.61184]},"properties":{"name":"Ruteng","pop_max":53976}},{"type":"Feature","geometry":{"type":"Point","coordinates":[103.610048,-1.589995]},"properties":{"name":"Jambi","pop_max":457090}},{"type":"Feature","geometry":{"type":"Point","coordinates":[134.069274,-0.871124]},"properties":{"name":"Manokwari","pop_max":74504}},{"type":"Feature","geometry":{"type":"Point","coordinates":[127.363016,0.792961]},"properties":{"name":"Ternate","pop_max":187521}},{"type":"Feature","geometry":{"type":"Point","coordinates":[128.200019,-3.716687]},"properties":{"name":"Ambon","pop_max":355596}},{"type":"Feature","geometry":{"type":"Point","coordinates":[118.766642,-8.449989]},"properties":{"name":"Raba","pop_max":106101}},{"type":"Feature","geometry":{"type":"Point","coordinates":[140.69998,-2.532986]},"properties":{"name":"Jayapura","pop_max":169341}},{"type":"Feature","geometry":{"type":"Point","coordinates":[95.320011,5.549983]},"properties":{"name":"Banda Aceh","pop_max":513698}},{"type":"Feature","geometry":{"type":"Point","coordinates":[116.830016,-1.250015]},"properties":{"name":"Balikpapan","pop_max":445905}},{"type":"Feature","geometry":{"type":"Point","coordinates":[110.825008,-7.564979]},"properties":{"name":"Surakarta","pop_max":555308}},{"type":"Feature","geometry":{"type":"Point","coordinates":[105.268052,-5.428073]},"properties":{"name":"Bandar Lampung","pop_max":865000}},{"type":"Feature","geometry":{"type":"Point","coordinates":[107.650008,-2.750027]},"properties":{"name":"Tanjung Pandan","pop_max":62374}},{"type":"Feature","geometry":{"type":"Point","coordinates":[112.608069,-7.978046]},"properties":{"name":"Malang","pop_max":805000}},{"type":"Feature","geometry":{"type":"Point","coordinates":[123.582989,-10.178669]},"properties":{"name":"Kupang","pop_max":282396}},{"type":"Feature","geometry":{"type":"Point","coordinates":[119.633307,-4.016668]},"properties":{"name":"Parepare","pop_max":87776}},{"type":"Feature","geometry":{"type":"Point","coordinates":[123.070048,0.549978]},"properties":{"name":"Gorontalo","pop_max":365497}},{"type":"Feature","geometry":{"type":"Point","coordinates":[100.358068,-0.958061]},"properties":{"name":"Padang","pop_max":855000}},{"type":"Feature","geometry":{"type":"Point","coordinates":[117.633016,3.300017]},"properties":{"name":"Tarakan","pop_max":193069}},{"type":"Feature","geometry":{"type":"Point","coordinates":[110.418074,-6.964672]},"properties":{"name":"Semarang","pop_max":1396000}},{"type":"Feature","geometry":{"type":"Point","coordinates":[104.748084,-2.978093]},"properties":{"name":"Palembang","pop_max":1749000}},{"type":"Feature","geometry":{"type":"Point","coordinates":[114.580076,-3.329992]},"properties":{"name":"Bandjarmasin","pop_max":603576}},{"type":"Feature","geometry":{"type":"Point","coordinates":[119.430082,-5.138013]},"properties":{"name":"Makassar","pop_max":1262000}},{"type":"Feature","geometry":{"type":"Point","coordinates":[98.648094,3.58192]},"properties":{"name":"Medan","pop_max":2115000}},{"type":"Feature","geometry":{"type":"Point","coordinates":[107.568067,-6.948083]},"properties":{"name":"Bandung","pop_max":2394000}},{"type":"Feature","geometry":{"type":"Point","coordinates":[112.748887,-7.24729]},"properties":{"name":"Surabaya","pop_max":2845000}},{"type":"Feature","geometry":{"type":"Point","coordinates":[106.827492,-6.172472]},"properties":{"name":"Jakarta","pop_max":9125000}}]}